{
  "places": [
    {
      "id": "place-24",
      "name": "Thousand Trails Peace River",
      "arrivalDate": "2024-03-17",
      "departureDate": "2024-03-31",
      "latitude": 27.5082,
      "longitude": -81.80223,
      "miles": 76.3,
      "location": "2555 River Road, Wauchula, FL 33873",
      "url": "https://thousandtrails.com/florida/peace-river-rv-camping-resort/?utm_source=campgrounds.rvlife.com&utm_medium=referral&utm_campaign=RVLife_Campgrounds",
      "address": "2555 River Road",
      "city": "Wauchula",
      "state": "FL"
    },
    {
      "id": "place-23",
      "name": "Thousand Trails Orlando RV Resort",
      "arrivalDate": "2024-03-03",
      "departureDate": "2024-03-17",
      "latitude": 28.37584,
      "longitude": -81.68532,
      "miles": 75.2,
      "location": "2110 Thousand Trails Blvd, Clermont, FL 34714",
      "url": "https://thousandtrails.com/florida/orlando-rv-resort/?utm_source=campgrounds.rvlife.com&utm_medium=referral&utm_campaign=RVLife_Campgrounds",
      "address": "2110 Thousand Trails Blvd",
      "city": "Clermont",
      "state": "FL"
    },
    {
      "id": "place-22",
      "name": "Thousand Trails Peace River",
      "arrivalDate": "2024-02-18",
      "departureDate": "2024-03-03",
      "latitude": 27.5082,
      "longitude": -81.80223,
      "miles": 76.7,
      "location": "2555 River Road, Wauchula, FL 33873",
      "url": "https://thousandtrails.com/florida/peace-river-rv-camping-resort/?utm_source=campgrounds.rvlife.com&utm_medium=referral&utm_campaign=RVLife_Campgrounds",
      "address": "2555 River Road",
      "city": "Wauchula",
      "state": "FL"
    },
    {
      "id": "place-21",
      "name": "Thousand Trails Orlando RV Resort",
      "arrivalDate": "2024-02-04",
      "departureDate": "2024-02-18",
      "latitude": 28.37585,
      "longitude": -81.67733,
      "miles": 75.6,
      "location": "2110 Thousand Trails Blvd",
      "url": ""
    },
    {
      "id": "place-20",
      "name": "Thousand Trails Peace River",
      "arrivalDate": "2024-01-21",
      "departureDate": "2024-02-04",
      "latitude": 27.5082,
      "longitude": -81.80223,
      "miles": 67.3,
      "location": "2555 River Road, Wauchula, FL 33873",
      "url": "https://thousandtrails.com/florida/peace-river-rv-camping-resort/?utm_source=campgrounds.rvlife.com&utm_medium=referral&utm_campaign=RVLife_Campgrounds",
      "address": "2555 River Road",
      "city": "Wauchula",
      "state": "FL"
    },
    {
      "id": "place-19",
      "name": "Florida State Fairgrounds",
      "arrivalDate": "2024-01-14",
      "departureDate": "2024-01-21",
      "latitude": 27.9902,
      "longitude": -82.35891,
      "miles": 223.8,
      "location": "4800 N US-301, Tampa, FL 33610-7350, United States",
      "url": "",
      "address": "4800 N US-301",
      "city": "Tampa",
      "state": "FL"
    },
    {
      "id": "place-18",
      "name": "438 NE English Ivy Trl, Pinetta, FL 32350-2915, United States",
      "arrivalDate": "2024-01-13",
      "departureDate": "2024-01-14",
      "latitude": 30.57523,
      "longitude": -83.32387,
      "miles": 276.3,
      "url": ""
    },
    {
      "id": "place-17",
      "name": "Gulf Shores / Pensacola West KOA Holiday",
      "arrivalDate": "2024-01-07",
      "departureDate": "2024-01-13",
      "latitude": 30.39595,
      "longitude": -87.45433,
      "miles": 309.2,
      "location": "11650 County Road 99, Lillian, AL 36549",
      "url": "https://koa.com/campgrounds/gulf-shores/?utm_source=campgrounds.rvlife.com&utm_campaign=RVLife_Campgrounds&utm_medium=referral",
      "address": "11650 County Road 99",
      "city": "Lillian",
      "state": "AL"
    },
    {
      "id": "place-16",
      "name": "Wildcat Brothers",
      "arrivalDate": "2024-01-06",
      "departureDate": "2024-01-07",
      "latitude": 30.18655,
      "longitude": -91.99071,
      "miles": 231.9,
      "location": "2601 SE Evangeline Thwy, Lafayette, LA 70508, United States",
      "url": "",
      "address": "2601 SE Evangeline Thwy",
      "city": "Lafayette",
      "state": "LA"
    },
    {
      "id": "place-15",
      "name": "Thousand Trails Lake Conroe",
      "arrivalDate": "2023-12-30",
      "departureDate": "2024-01-06",
      "latitude": 30.39371,
      "longitude": -95.53352,
      "miles": 117.7,
      "location": "11720 Thousand Trails Rd., Willis, TX 77318",
      "url": "https://thousandtrails.com/texas/lake-conroe-rv-camping-resort/?utm_source=campgrounds.rvlife.com&utm_medium=referral&utm_campaign=RVLife_Campgrounds",
      "address": "11720 Thousand Trails Rd.",
      "city": "Willis",
      "state": "TX"
    },
    {
      "id": "place-14",
      "name": "Thousand Trails Colorado River",
      "arrivalDate": "2023-12-16",
      "departureDate": "2023-12-30",
      "latitude": 29.73105,
      "longitude": -96.60794,
      "miles": 140.4,
      "location": "1062 Thousand Trails Lane, Columbus, TX 78934",
      "url": "https://thousandtrails.com/texas/colorado-river-rv-campground/?utm_source=campgrounds.rvlife.com&utm_medium=referral&utm_campaign=RVLife_Campgrounds",
      "address": "1062 Thousand Trails Lane",
      "city": "Columbus",
      "state": "TX"
    },
    {
      "id": "place-13",
      "name": "Sun Outdoors San Antonio West",
      "arrivalDate": "2023-12-09",
      "departureDate": "2023-12-16",
      "latitude": 29.44432,
      "longitude": -98.71072,
      "miles": 45.5,
      "location": "1120 West Loop 1604, San Antonio, TX 78251",
      "url": "https://www.sunrvresorts.com/resorts/southwest/texas/blazing-star/?utm_source=campgrounds.rvlife.com&utm_campaign=RVLife_Campgrounds&utm_medium=referral",
      "address": "1120 West Loop 1604",
      "city": "San Antonio",
      "state": "TX"
    },
    {
      "id": "place-12",
      "name": "Sun Outdoors Texas Hill Country",
      "arrivalDate": "2023-12-02",
      "departureDate": "2023-12-09",
      "latitude": 29.67183,
      "longitude": -98.1529,
      "miles": 70.4,
      "location": "131 Rueckle Rd, New Braunfels, TX 78130",
      "url": "https://www.sunoutdoors.com/texas/sun-retreats-texas-hill-country?utm_source=campgrounds.rvlife.com&utm_campaign=RVLife_Campgrounds&utm_medium=referral",
      "address": "131 Rueckle Rd",
      "city": "New Braunfels",
      "state": "TX"
    },
    {
      "id": "place-11",
      "name": "Sun Outdoors Lake Travis",
      "arrivalDate": "2023-11-26",
      "departureDate": "2023-12-02",
      "latitude": 30.41556,
      "longitude": -97.92934,
      "miles": 107.3,
      "location": "5220 Hudson Bend Rd, Austin, TX 78734",
      "url": "https://www.sunrvresorts.com/resorts/southwest/texas/la-hacienda/?utm_source=campgrounds.rvlife.com&utm_campaign=RVLife_Campgrounds&utm_medium=referral",
      "address": "5220 Hudson Bend Rd",
      "city": "Austin",
      "state": "TX"
    },
    {
      "id": "place-10",
      "name": "Thousand Trails Colorado River",
      "arrivalDate": "2023-11-12",
      "departureDate": "2023-11-26",
      "latitude": 29.73105,
      "longitude": -96.60794,
      "miles": 288.4,
      "location": "1062 Thousand Trails Lane, Columbus, TX 78934",
      "url": "https://thousandtrails.com/texas/colorado-river-rv-campground/?utm_source=campgrounds.rvlife.com&utm_medium=referral&utm_campaign=RVLife_Campgrounds",
      "address": "1062 Thousand Trails Lane",
      "city": "Columbus",
      "state": "TX"
    },
    {
      "id": "place-9",
      "name": "Thousand Trails Bay Landing",
      "arrivalDate": "2023-10-22",
      "departureDate": "2023-11-12",
      "latitude": 33.16813,
      "longitude": -97.84752,
      "miles": 255.3,
      "location": "2305 Hwy 380 W, Bridgeport, TX 76426",
      "url": "https://thousandtrails.com/texas/bay-landing-rv-campground/?utm_source=campgrounds.rvlife.com&utm_medium=referral&utm_campaign=RVLife_Campgrounds",
      "address": "2305 Hwy 380 W",
      "city": "Bridgeport",
      "state": "TX"
    },
    {
      "id": "place-8",
      "name": "Pheasant Ridge Winery",
      "arrivalDate": "2023-10-21",
      "departureDate": "2023-10-22",
      "latitude": 33.72467,
      "longitude": -101.79381,
      "miles": 337.6,
      "location": "3507 County Road 5700, Lubbock, TX 79403-6962, United States",
      "url": "",
      "address": "3507 County Road 5700",
      "city": "Lubbock",
      "state": "TX"
    },
    {
      "id": "place-7",
      "name": "Albuquerque North / Bernalillo KOA Journey",
      "arrivalDate": "2023-10-16",
      "departureDate": "2023-10-21",
      "latitude": 35.30644,
      "longitude": -106.53924,
      "miles": 10.4,
      "location": "555 South Hill Road, Bernalillo, NM 87004",
      "url": "https://koa.com/campgrounds/albuquerque-north/?utm_source=campgrounds.rvlife.com&utm_campaign=RVLife_Campgrounds&utm_medium=referral",
      "address": "555 South Hill Road",
      "city": "Bernalillo",
      "state": "NM"
    },
    {
      "id": "place-6",
      "name": "Balloon Museum Dr NE, Albuquerque, NM 87113, United States",
      "arrivalDate": "2023-10-02",
      "departureDate": "2023-10-16",
      "latitude": 35.18918,
      "longitude": -106.59674,
      "miles": 3.5,
      "url": ""
    },
    {
      "id": "place-5",
      "name": "Starr Brothers Brewing",
      "arrivalDate": "2023-10-01",
      "departureDate": "2023-10-02",
      "latitude": 35.15913,
      "longitude": -106.58028,
      "miles": 186.2,
      "location": "5700 San Antonio Dr NE, Albuquerque, NM 87109-4178, United States",
      "url": "",
      "address": "5700 San Antonio Dr NE",
      "city": "Albuquerque",
      "state": "NM"
    },
    {
      "id": "place-4",
      "name": "Tico Time River Resort",
      "arrivalDate": "2023-09-30",
      "departureDate": "2023-10-01",
      "latitude": 36.99003,
      "longitude": -107.86966,
      "miles": 179.9,
      "location": "20 Road 2050, Aztec, NM 87410",
      "url": "https://ticotimeresort.com/?utm_source=campgrounds.rvlife.com&utm_campaign=RVLife_Campgrounds&utm_medium=referral",
      "address": "20 Road 2050",
      "city": "Aztec",
      "state": "NM"
    },
    {
      "id": "place-3",
      "name": "410 Loveridge Dr, Moab, UT 84532-2808, United States",
      "arrivalDate": "2023-09-14",
      "departureDate": "2023-09-30",
      "latitude": 38.56708,
      "longitude": -109.53984,
      "miles": 3.5,
      "url": ""
    },
    {
      "id": "place-2",
      "name": "Sun Outdoors Arches Gateway",
      "arrivalDate": "2023-09-09",
      "departureDate": "2023-09-14",
      "latitude": 38.60086,
      "longitude": -109.57539,
      "miles": 236.5,
      "location": "1773 N Highway 191, Moab, UT 84532",
      "url": "https://www.sunoutdoors.com/utah/sun-outdoors-arches-gateway?utm_campaign=RVLife_Campgrounds&utm_medium=referral&utm_source=campgrounds.rvlife.com",
      "address": "1773 N Highway 191",
      "city": "Moab",
      "state": "UT"
    },
    {
      "id": "place-1",
      "name": "Sun Outdoors Salt Lake City",
      "arrivalDate": "2023-09-02",
      "departureDate": "2023-09-09",
      "latitude": 40.83024,
      "longitude": -111.93842,
      "miles": 350.6,
      "location": "1012 Recreation Way, North Salt Lake, UT 84054",
      "url": "https://www.sunrvresorts.com/resorts/west/utah/pony-express-rv-resort/?utm_source=campgrounds.rvlife.com&utm_campaign=RVLife_Campgrounds&utm_medium=referral",
      "address": "1012 Recreation Way",
      "city": "North Salt Lake",
      "state": "UT"
    },
    {
      "id": "place-97",
      "name": "Center Point RV Park",
      "arrivalDate": "2023-06-03",
      "departureDate": "2023-09-02",
      "latitude": 43.59854,
      "longitude": -116.5696,
      "miles": 355.8,
      "location": "1530 N Ann, Nampa, ID 83687",
      "url": "https://centerpointrv.com/?utm_source=campgrounds.rvlife.com&utm_campaign=RVLife_Campgrounds&utm_medium=referral",
      "address": "1530 N Ann",
      "city": "Nampa",
      "state": "ID"
    },
    {
      "id": "place-96",
      "name": "Salt Lake City KOA Holiday",
      "arrivalDate": "2023-05-28",
      "departureDate": "2023-06-03",
      "latitude": 40.77224,
      "longitude": -111.93294,
      "miles": 236.1,
      "location": "1400 West North Temple, Salt Lake City, UT 84116",
      "url": "https://koa.com/campgrounds/salt-lake-city/?utm_source=campgrounds.rvlife.com&utm_campaign=RVLife_Campgrounds&utm_medium=referral",
      "address": "1400 West North Temple",
      "city": "Salt Lake City",
      "state": "UT"
    },
    {
      "id": "place-95",
      "name": "410 Loveridge Dr, Moab, UT 84532-2808, United States",
      "arrivalDate": "2023-05-21",
      "departureDate": "2023-05-28",
      "latitude": 38.56708,
      "longitude": -109.53984,
      "miles": 2.9,
      "url": ""
    },
    {
      "id": "place-94",
      "name": "Sun Outdoors  North Moab",
      "arrivalDate": "2023-05-14",
      "departureDate": "2023-05-21",
      "latitude": 38.5942,
      "longitude": -109.56725,
      "miles": 167.3,
      "location": "1301 N Hwy 191, Moab, UT 84533",
      "url": "https://www.sunoutdoors.com/utah/sun-outdoors-north-moab?utm_source=campgrounds.rvlife.com&utm_medium=referral&utm_campaign=RVLife_Campgrounds",
      "address": "1301 N Hwy 191",
      "city": "Moab",
      "state": "UT"
    },
    {
      "id": "place-93",
      "name": "Alpen Rose RV Park",
      "arrivalDate": "2023-05-07",
      "departureDate": "2023-05-14",
      "latitude": 37.35048,
      "longitude": -107.85382,
      "miles": 204.1,
      "location": "27847 Highway 550, Durango, CO 81301",
      "url": "https://www.alpenroservpark.com/?utm_source=campgrounds.rvlife.com&utm_campaign=RVLife_Campgrounds&utm_medium=referral",
      "address": "27847 Highway 550",
      "city": "Durango",
      "state": "CO"
    },
    {
      "id": "place-92",
      "name": "Albuquerque North / Bernalillo KOA Journey",
      "arrivalDate": "2023-04-30",
      "departureDate": "2023-05-07",
      "latitude": 35.30644,
      "longitude": -106.53924,
      "miles": 308.3,
      "location": "555 South Hill Road, Bernalillo, NM 87004",
      "url": "https://koa.com/campgrounds/albuquerque-north/?utm_source=campgrounds.rvlife.com&utm_campaign=RVLife_Campgrounds&utm_medium=referral",
      "address": "555 South Hill Road",
      "city": "Bernalillo",
      "state": "NM"
    },
    {
      "id": "place-91",
      "name": "Amarillo KOA Journey",
      "arrivalDate": "2023-04-29",
      "departureDate": "2023-04-30",
      "latitude": 35.22468,
      "longitude": -101.72438,
      "miles": 271.5,
      "location": "1100 Folsom Road, Amarillo, TX 79108",
      "url": "https://koa.com/campgrounds/amarillo/?utm_source=campgrounds.rvlife.com&utm_campaign=RVLife_Campgrounds&utm_medium=referral",
      "address": "1100 Folsom Road",
      "city": "Amarillo",
      "state": "TX"
    },
    {
      "id": "place-90",
      "name": "Oklahoma City East KOA Holiday",
      "arrivalDate": "2023-04-23",
      "departureDate": "2023-04-29",
      "latitude": 35.40302,
      "longitude": -97.26485,
      "miles": 208.6,
      "location": "6200 South Choctaw Road, Choctaw, OK 73020",
      "url": "https://koa.com/campgrounds/oklahoma-city/?utm_source=campgrounds.rvlife.com&utm_campaign=RVLife_Campgrounds&utm_medium=referral",
      "address": "6200 South Choctaw Road",
      "city": "Choctaw",
      "state": "OK"
    },
    {
      "id": "place-89",
      "name": "1621 W Highway 96, Mansfield, AR 72944-9062, United States",
      "arrivalDate": "2023-04-16",
      "departureDate": "2023-04-23",
      "latitude": 35.04938,
      "longitude": -94.28503,
      "miles": 203.3,
      "url": ""
    },
    {
      "id": "place-88",
      "name": "25 N Main St, Franklin, AR 72536-5537, United States",
      "arrivalDate": "2023-04-09",
      "departureDate": "2023-04-16",
      "latitude": 36.17066,
      "longitude": -91.77519,
      "miles": 175.3,
      "url": ""
    },
    {
      "id": "place-87",
      "name": "Mississippi Ale House",
      "arrivalDate": "2023-04-08",
      "departureDate": "2023-04-09",
      "latitude": 34.96316,
      "longitude": -89.82667,
      "miles": 352.4,
      "location": "9211 Highway 178, Olive Branch, MS 38654, United States",
      "url": "",
      "address": "9211 Highway 178",
      "city": "Olive Branch",
      "state": "MS"
    },
    {
      "id": "place-86",
      "name": "Sun Outdoors New Orleans North Shore",
      "arrivalDate": "2023-04-01",
      "departureDate": "2023-04-08",
      "latitude": 30.48642,
      "longitude": -90.33815,
      "miles": 197.3,
      "location": "43234 Highway 445, Ponchatoula, LA 70454",
      "url": "https://www.sunoutdoors.com/louisiana/sun-outdoors-new-orleans-north-shore?utm_source=campgrounds.rvlife.com&utm_campaign=RVLife_Campgrounds&utm_medium=referral",
      "address": "43234 Highway 445",
      "city": "Ponchatoula",
      "state": "LA"
    },
    {
      "id": "place-85",
      "name": "Gulf Shores RV Resort",
      "arrivalDate": "2023-03-26",
      "departureDate": "2023-04-01",
      "latitude": 30.30892,
      "longitude": -87.70831,
      "miles": 253.9,
      "location": "18717 Barefoot Way, Gulf Shores, AL 36542",
      "url": "https://rvcoutdoors.com/gulf-shores-rv-resort/?utm_source=campgrounds.rvlife.com&utm_campaign=RVLife_Campgrounds&utm_medium=referral",
      "address": "18717 Barefoot Way",
      "city": "Gulf Shores",
      "state": "AL"
    },
    {
      "id": "place-84",
      "name": "1900 Havana Hwy, Quincy, FL 32352-1109, United States",
      "arrivalDate": "2023-03-25",
      "departureDate": "2023-03-26",
      "latitude": 30.58976,
      "longitude": -84.52303,
      "miles": 255.9,
      "url": ""
    },
    {
      "id": "place-53",
      "name": "Bulow RV Resort",
      "arrivalDate": "2023-03-11",
      "departureDate": "2023-03-25",
      "latitude": 29.4365,
      "longitude": -81.15103,
      "miles": 101.3,
      "location": "3345 Old Kings Road South, Flagler Beach, FL 32136",
      "url": "https://thousandtrails.com/florida/bulow-rv-resort/?utm_source=campgrounds.rvlife.com&utm_medium=referral&utm_campaign=RVLife_Campgrounds",
      "address": "3345 Old Kings Road South",
      "city": "Flagler Beach",
      "state": "FL"
    },
    {
      "id": "place-52",
      "name": "Thousand Trails Orlando RV Resort",
      "arrivalDate": "2023-03-05",
      "departureDate": "2023-03-11",
      "latitude": 28.37585,
      "longitude": -81.67733,
      "miles": 20.6,
      "location": "2110 Thousand Trails Blvd, Clermont, FL 34714",
      "url": "https://thousandtrails.com/florida/orlando-rv-resort/?utm_source=campgrounds.rvlife.com&utm_medium=referral&utm_campaign=RVLife_Campgrounds",
      "address": "2110 Thousand Trails Blvd",
      "city": "Clermont",
      "state": "FL"
    },
    {
      "id": "place-51",
      "name": "Clerbrook Golf & RV Resort",
      "arrivalDate": "2023-02-19",
      "departureDate": "2023-03-05",
      "latitude": 28.63841,
      "longitude": -81.78718,
      "miles": 20.1,
      "location": "20005 US Hwy 27N, Clermont, FL 34715",
      "url": "https://thousandtrails.com/florida/clerbrook-golf-rv-resort/?utm_source=campgrounds.rvlife.com&utm_medium=referral&utm_campaign=RVLife_Campgrounds",
      "address": "20005 US Hwy 27N",
      "city": "Clermont",
      "state": "FL"
    },
    {
      "id": "place-50",
      "name": "Orlando RV Resort",
      "arrivalDate": "2023-02-05",
      "departureDate": "2023-02-19",
      "latitude": 28.37584,
      "longitude": -81.68532,
      "miles": 75.1,
      "location": "2110 Thousand Trails Blvd, Clermont, FL 34714",
      "url": "https://thousandtrails.com/florida/orlando-rv-resort/?utm_source=campgrounds.rvlife.com&utm_medium=referral&utm_campaign=RVLife_Campgrounds",
      "address": "2110 Thousand Trails Blvd",
      "city": "Clermont",
      "state": "FL"
    },
    {
      "id": "place-49",
      "name": "Peace River RV & Camping Resort",
      "arrivalDate": "2023-01-22",
      "departureDate": "2023-02-05",
      "latitude": 27.5082,
      "longitude": -81.80223,
      "miles": 67.3,
      "location": "2555 River Road, Wauchula, FL 33873",
      "url": "https://thousandtrails.com/florida/peace-river-rv-camping-resort/?utm_source=campgrounds.rvlife.com&utm_medium=referral&utm_campaign=RVLife_Campgrounds",
      "address": "2555 River Road",
      "city": "Wauchula",
      "state": "FL"
    },
    {
      "id": "place-48",
      "name": "Florida State Fairgrounds",
      "arrivalDate": "2023-01-15",
      "departureDate": "2023-01-22",
      "latitude": 27.9902,
      "longitude": -82.35891,
      "miles": 78.9,
      "location": "4800 N US-301, Tampa, FL 33610-7350, United States",
      "url": "",
      "address": "4800 N US-301",
      "city": "Tampa",
      "state": "FL"
    },
    {
      "id": "place-47",
      "name": "Clerbrook Golf & RV Resort",
      "arrivalDate": "2023-01-01",
      "departureDate": "2023-01-15",
      "latitude": 28.63841,
      "longitude": -81.78718,
      "miles": 325.6,
      "location": "20005 US Hwy 27N, Clermont, FL 34715",
      "url": "https://thousandtrails.com/florida/clerbrook-golf-rv-resort/?utm_source=campgrounds.rvlife.com&utm_medium=referral&utm_campaign=RVLife_Campgrounds",
      "address": "20005 US Hwy 27N",
      "city": "Clermont",
      "state": "FL"
    },
    {
      "id": "place-46",
      "name": "The Oaks at Point South RV",
      "arrivalDate": "2022-12-11",
      "departureDate": "2023-01-01",
      "latitude": 32.62638,
      "longitude": -80.87311,
      "miles": 272.7,
      "location": "1292 Campground Road, Yemassee, SC 29945",
      "url": "https://thousandtrails.com/south-carolina/the-oaks-at-point-south-rv/?utm_source=campgrounds.rvlife.com&utm_medium=referral&utm_campaign=RVLife_Campgrounds",
      "address": "1292 Campground Road",
      "city": "Yemassee",
      "state": "SC"
    },
    {
      "id": "place-45",
      "name": "Forest Lake RV Park & Camping Resort",
      "arrivalDate": "2022-11-20",
      "departureDate": "2022-12-11",
      "latitude": 35.85755,
      "longitude": -80.39575,
      "miles": 277.3,
      "location": "192 Thousand Trails Dr, Advance, NC 27006",
      "url": "https://thousandtrails.com/north-carolina/forest-lake-rv-camping-resort/?utm_source=campgrounds.rvlife.com&utm_medium=referral&utm_campaign=RVLife_Campgrounds",
      "address": "192 Thousand Trails Dr",
      "city": "Advance",
      "state": "NC"
    },
    {
      "id": "place-44",
      "name": "Ironshield Brewing",
      "arrivalDate": "2022-11-19",
      "departureDate": "2022-11-20",
      "latitude": 33.96039,
      "longitude": -83.98705,
      "miles": 265.2,
      "location": "457 N Chestnut St, Lawrenceville, GA 30046, United States",
      "url": "",
      "address": "457 N Chestnut St",
      "city": "Lawrenceville",
      "state": "GA"
    },
    {
      "id": "place-43",
      "name": "Hidden Cove RV Resort",
      "arrivalDate": "2022-10-30",
      "departureDate": "2022-11-19",
      "latitude": 34.05415,
      "longitude": -87.14695,
      "miles": 220.5,
      "location": "687 County Rd 3919, Arley, AL 35541",
      "url": "https://thousandtrails.com/alabama/hidden-cove-rv-resort/?utm_source=campgrounds.rvlife.com&utm_medium=referral&utm_campaign=RVLife_Campgrounds",
      "address": "687 County Rd 3919",
      "city": "Arley",
      "state": "AL"
    },
    {
      "id": "place-42",
      "name": "Pine Mountain RV Resort",
      "arrivalDate": "2022-10-23",
      "departureDate": "2022-10-30",
      "latitude": 32.87443,
      "longitude": -84.87054,
      "miles": 212.6,
      "location": "8804 Hamilton Rd, Pine Mountain, GA 31822",
      "url": "https://pinemountainrvresort.com/?utm_source=campgrounds.rvlife.com&utm_campaign=RVLife_Campgrounds&utm_medium=referral",
      "address": "8804 Hamilton Rd",
      "city": "Pine Mountain",
      "state": "GA"
    },
    {
      "id": "place-41",
      "name": "Golden Grove Brewery (Golden Grove Farm & Brew)",
      "arrivalDate": "2022-10-22",
      "departureDate": "2022-10-23",
      "latitude": 34.68377,
      "longitude": -82.51727,
      "miles": 174.2,
      "location": "Golden Grove Brewery, 115 Krim Rd, Piedmont, SC 29673, United States",
      "url": "",
      "address": "Golden Grove Brewery, 115 Krim Rd",
      "city": "Piedmont",
      "state": "SC"
    },
    {
      "id": "place-40",
      "name": "Forest Lake RV Park & Camping Resort",
      "arrivalDate": "2022-10-16",
      "departureDate": "2022-10-22",
      "latitude": 35.85755,
      "longitude": -80.39575,
      "miles": 230.4,
      "location": "192 Thousand Trails Dr, Advance, NC 27006",
      "url": "https://thousandtrails.com/north-carolina/forest-lake-rv-camping-resort/?utm_source=campgrounds.rvlife.com&utm_medium=referral&utm_campaign=RVLife_Campgrounds",
      "address": "192 Thousand Trails Dr",
      "city": "Advance",
      "state": "NC"
    },
    {
      "id": "place-39",
      "name": "136 Thessalonia Rd, Bremo Bluff, VA 23022-2221, United States",
      "arrivalDate": "2022-10-09",
      "departureDate": "2022-10-16",
      "latitude": 37.77137,
      "longitude": -78.27538,
      "miles": 113.7,
      "url": ""
    },
    {
      "id": "place-38",
      "name": "Harbor View RV & Camping Resort",
      "arrivalDate": "2022-10-08",
      "departureDate": "2022-10-09",
      "latitude": 38.20357,
      "longitude": -76.97361,
      "miles": 176.5,
      "location": "15 Harbor View Circle, Colonial Beach, VA 22443",
      "url": "https://thousandtrails.com/virginia/harbor-view-rv-camping-resort/?utm_source=campgrounds.rvlife.com&utm_medium=referral&utm_campaign=RVLife_Campgrounds",
      "address": "15 Harbor View Circle",
      "city": "Colonial Beach",
      "state": "VA"
    },
    {
      "id": "place-37",
      "name": "Circle M RV & Camping Resort",
      "arrivalDate": "2022-10-01",
      "departureDate": "2022-10-08",
      "latitude": 40.00111,
      "longitude": -76.32591,
      "miles": 133.9,
      "location": "2111 Millersville Rd, Lancaster, PA 17603",
      "url": "https://thousandtrails.com/pennsylvania/circle-m-rv-camping-resort/?utm_source=campgrounds.rvlife.com&utm_medium=referral&utm_campaign=RVLife_Campgrounds",
      "address": "2111 Millersville Rd",
      "city": "Lancaster",
      "state": "PA"
    },
    {
      "id": "place-36",
      "name": "Chestnut Lake RV Campground",
      "arrivalDate": "2022-09-25",
      "departureDate": "2022-10-01",
      "latitude": 39.53994,
      "longitude": -74.46872,
      "miles": 36,
      "location": "631 Chestnut Neck Rd, Port Republic, NJ 08241",
      "url": "https://thousandtrails.com/new-jersey/chestnut-lake-rv-campground/?utm_source=campgrounds.rvlife.com&utm_medium=referral&utm_campaign=RVLife_Campgrounds",
      "address": "631 Chestnut Neck Rd",
      "city": "Port Republic",
      "state": "NJ"
    },
    {
      "id": "place-35",
      "name": "Sea Pines RV Resort & Campground",
      "arrivalDate": "2022-09-05",
      "departureDate": "2022-09-25",
      "latitude": 39.12548,
      "longitude": -74.78662,
      "miles": 84.8,
      "location": "1535 Route 9, Cape May Court House, NJ 08210",
      "url": "https://thousandtrails.com/new-jersey/sea-pines-rv-resort-campground/?utm_source=campgrounds.rvlife.com&utm_medium=referral&utm_campaign=RVLife_Campgrounds",
      "address": "1535 Route 9",
      "city": "Cape May Court House",
      "state": "NJ"
    },
    {
      "id": "place-34",
      "name": "Midnight Oil Brewing Company",
      "arrivalDate": "2022-09-04",
      "departureDate": "2022-09-05",
      "latitude": 39.61255,
      "longitude": -75.76438,
      "miles": 23.2,
      "location": "674 Pencader Dr, Newark, DE 19702-3348, United States",
      "url": "",
      "address": "674 Pencader Dr",
      "city": "Newark",
      "state": "DE"
    },
    {
      "id": "place-33",
      "name": "Dove Valley Winery (Dove Valley Wines)",
      "arrivalDate": "2022-09-03",
      "departureDate": "2022-09-04",
      "latitude": 39.67343,
      "longitude": -76.03807,
      "miles": 35.4,
      "location": "Dove Valley Winery, 645 Harrington Rd, Rising Sun, MD 21911-2422, United States",
      "url": "",
      "address": "Dove Valley Winery, 645 Harrington Rd",
      "city": "Rising Sun",
      "state": "MD"
    },
    {
      "id": "place-32",
      "name": "Circle M RV & Camping Resort",
      "arrivalDate": "2022-08-28",
      "departureDate": "2022-09-03",
      "latitude": 40.00111,
      "longitude": -76.32591,
      "miles": 185.8,
      "location": "2111 Millersville Rd, Lancaster, PA 17603",
      "url": "https://thousandtrails.com/pennsylvania/circle-m-rv-camping-resort/?utm_source=campgrounds.rvlife.com&utm_medium=referral&utm_campaign=RVLife_Campgrounds",
      "address": "2111 Millersville Rd",
      "city": "Lancaster",
      "state": "PA"
    },
    {
      "id": "place-31",
      "name": "1146 Munster Rd, Portage, PA 15946-6108, United States",
      "arrivalDate": "2022-08-27",
      "departureDate": "2022-08-28",
      "latitude": 40.42656,
      "longitude": -78.67855,
      "miles": 191,
      "url": ""
    },
    {
      "id": "place-136",
      "name": "Kenisee Lake RV Campground",
      "arrivalDate": "2022-08-21",
      "departureDate": "2022-08-27",
      "latitude": 41.72745,
      "longitude": -80.82435,
      "miles": 197.4,
      "location": "2021 Mill Creek Rd, Jefferson, OH 44047",
      "url": "https://thousandtrails.com/ohio/kenisee-lake-rv-campground/?utm_source=campgrounds.rvlife.com&utm_medium=referral&utm_campaign=RVLife_Campgrounds",
      "address": "2021 Mill Creek Rd",
      "city": "Jefferson",
      "state": "OH"
    },
    {
      "id": "place-30",
      "name": "Kenisee Lake RV Campground",
      "arrivalDate": "2022-08-21",
      "departureDate": "2022-08-27",
      "latitude": 41.72745,
      "longitude": -80.82435,
      "miles": 0,
      "location": "2021 Mill Creek Rd, Jefferson, OH 44047",
      "url": "https://thousandtrails.com/ohio/kenisee-lake-rv-campground/?utm_source=campgrounds.rvlife.com&utm_medium=referral&utm_campaign=RVLife_Campgrounds",
      "address": "2021 Mill Creek Rd",
      "city": "Jefferson",
      "state": "OH"
    },
    {
      "id": "place-135",
      "name": "American Winery Music Manager",
      "arrivalDate": "2022-08-20",
      "departureDate": "2022-08-21",
      "latitude": 41.57293,
      "longitude": -84.15596,
      "miles": 135.4,
      "location": "15119 US Highway 20A, Wauseon, OH 43567-9654, United States",
      "url": "",
      "address": "15119 US Highway 20A",
      "city": "Wauseon",
      "state": "OH"
    },
    {
      "id": "place-134",
      "name": "Bear Cave RV Campground",
      "arrivalDate": "2022-08-14",
      "departureDate": "2022-08-20",
      "latitude": 41.88201,
      "longitude": -86.35895,
      "miles": 60.6,
      "location": "4085 North Red Bud Trail, Buchanan, MI 49107",
      "url": "https://thousandtrails.com/michigan/bear-cave-rv-campground/?utm_source=campgrounds.rvlife.com&utm_medium=referral&utm_campaign=RVLife_Campgrounds",
      "address": "4085 North Red Bud Trail",
      "city": "Buchanan",
      "state": "MI"
    },
    {
      "id": "place-133",
      "name": "Shipshewana RV Park",
      "arrivalDate": "2022-08-07",
      "departureDate": "2022-08-14",
      "latitude": 41.6698,
      "longitude": -85.57343,
      "miles": 87.4,
      "location": "510 E Farver St, Shipshewana, IN 46565",
      "url": "https://shipshewanatradingplace.com/rv/rv-park/?utm_source=campgrounds.rvlife.com&utm_campaign=RVLife_Campgrounds&utm_medium=referral",
      "address": "510 E Farver St",
      "city": "Shipshewana",
      "state": "IN"
    },
    {
      "id": "place-132",
      "name": "American Winery Music Manager",
      "arrivalDate": "2022-08-06",
      "departureDate": "2022-08-07",
      "latitude": 41.57293,
      "longitude": -84.15596,
      "miles": 197.6,
      "location": "15119 US Highway 20A, Wauseon, OH 43567-9654, United States",
      "url": "",
      "address": "15119 US Highway 20A",
      "city": "Wauseon",
      "state": "OH"
    },
    {
      "id": "place-131",
      "name": "Kenisee Lake RV Campground",
      "arrivalDate": "2022-07-31",
      "departureDate": "2022-08-06",
      "latitude": 41.72745,
      "longitude": -80.82435,
      "miles": 131,
      "location": "2021 Mill Creek Rd, Jefferson, OH 44047",
      "url": "https://thousandtrails.com/ohio/kenisee-lake-rv-campground/?utm_source=campgrounds.rvlife.com&utm_medium=referral&utm_campaign=RVLife_Campgrounds",
      "address": "2021 Mill Creek Rd",
      "city": "Jefferson",
      "state": "OH"
    },
    {
      "id": "place-130",
      "name": "Porchvue Winery",
      "arrivalDate": "2022-07-30",
      "departureDate": "2022-07-31",
      "latitude": 41.06615,
      "longitude": -79.29622,
      "miles": 217.7,
      "location": "1781 Pumptown Rd, Fairmount City, PA 16224-2321, United States",
      "url": "",
      "address": "1781 Pumptown Rd",
      "city": "Fairmount City",
      "state": "PA"
    },
    {
      "id": "place-129",
      "name": "PA Dutch Country RV Resort",
      "arrivalDate": "2022-07-10",
      "departureDate": "2022-07-30",
      "latitude": 40.23677,
      "longitude": -76.43789,
      "miles": 57.2,
      "location": "185 Lehman Rd., Manheim, PA 17545",
      "url": "https://thousandtrails.com/pennsylvania/pa-dutch-country-rv-resort/?utm_source=campgrounds.rvlife.com&utm_medium=referral&utm_campaign=RVLife_Campgrounds",
      "address": "185 Lehman Rd.",
      "city": "Manheim",
      "state": "PA"
    },
    {
      "id": "place-128",
      "name": "Gettysburg Farm RV Campground",
      "arrivalDate": "2022-06-19",
      "departureDate": "2022-07-10",
      "latitude": 39.96179,
      "longitude": -76.95606,
      "miles": 175.8,
      "location": "6200 Big Mount Rd., Dover, PA 17315",
      "url": "https://thousandtrails.com/pennsylvania/gettysburg-farm-rv-campground/?utm_source=campgrounds.rvlife.com&utm_medium=referral&utm_campaign=RVLife_Campgrounds",
      "address": "6200 Big Mount Rd.",
      "city": "Dover",
      "state": "PA"
    },
    {
      "id": "place-127",
      "name": "Harbor View RV & Camping Resort",
      "arrivalDate": "2022-05-29",
      "departureDate": "2022-06-19",
      "latitude": 38.20357,
      "longitude": -76.97361,
      "miles": 72,
      "location": "15 Harbor View Circle, Colonial Beach, VA 22443",
      "url": "https://thousandtrails.com/virginia/harbor-view-rv-camping-resort/?utm_source=campgrounds.rvlife.com&utm_medium=referral&utm_campaign=RVLife_Campgrounds",
      "address": "15 Harbor View Circle",
      "city": "Colonial Beach",
      "state": "VA"
    },
    {
      "id": "place-126",
      "name": "Chesapeake Bay RV Resort",
      "arrivalDate": "2022-05-08",
      "departureDate": "2022-05-29",
      "latitude": 37.54316,
      "longitude": -76.52895,
      "miles": 36.2,
      "location": "12014 Trails Ln, Gloucester, VA 23061-2618, United States",
      "url": "",
      "address": "12014 Trails Ln",
      "city": "Gloucester",
      "state": "VA"
    },
    {
      "id": "place-125",
      "name": "Williamsburg RV & Camping Resort",
      "arrivalDate": "2022-04-24",
      "departureDate": "2022-05-08",
      "latitude": 37.38683,
      "longitude": -76.76628,
      "miles": 276.4,
      "location": "4301 Rochambeau Dr, Williamsburg, VA 23188",
      "url": "https://thousandtrails.com/virginia/williamsburg-rv-camping-resort/?utm_source=campgrounds.rvlife.com&utm_medium=referral&utm_campaign=RVLife_Campgrounds",
      "address": "4301 Rochambeau Dr",
      "city": "Williamsburg",
      "state": "VA"
    },
    {
      "id": "place-124",
      "name": "Forest Lake RV Park & Camping Resort",
      "arrivalDate": "2022-04-10",
      "departureDate": "2022-04-24",
      "latitude": 35.85755,
      "longitude": -80.39575,
      "miles": 203.3,
      "location": "192 Thousand Trails Dr, Advance, NC 27006",
      "url": "https://thousandtrails.com/north-carolina/forest-lake-rv-camping-resort/?utm_source=campgrounds.rvlife.com&utm_medium=referral&utm_campaign=RVLife_Campgrounds",
      "address": "192 Thousand Trails Dr",
      "city": "Advance",
      "state": "NC"
    },
    {
      "id": "place-123",
      "name": "Carolina Landing",
      "arrivalDate": "2022-03-13",
      "departureDate": "2022-04-10",
      "latitude": 34.49924,
      "longitude": -82.97764,
      "miles": 253.9,
      "location": "120 Carolina Landing Drive, Fair Play, SC 29643",
      "url": "https://thousandtrails.com/south-carolina/carolina-landing-rv-resort/?utm_source=campgrounds.rvlife.com&utm_medium=referral&utm_campaign=RVLife_Campgrounds",
      "address": "120 Carolina Landing Drive",
      "city": "Fair Play",
      "state": "SC"
    },
    {
      "id": "place-122",
      "name": "The Oaks at Point South RV",
      "arrivalDate": "2022-02-27",
      "departureDate": "2022-03-13",
      "latitude": 32.62638,
      "longitude": -80.87311,
      "miles": 346.9,
      "location": "1292 Campground Road, Yemassee, SC 29945",
      "url": "https://thousandtrails.com/south-carolina/the-oaks-at-point-south-rv/?utm_source=campgrounds.rvlife.com&utm_medium=referral&utm_campaign=RVLife_Campgrounds",
      "address": "1292 Campground Road",
      "city": "Yemassee",
      "state": "SC"
    },
    {
      "id": "place-121",
      "name": "Orlando RV Resort",
      "arrivalDate": "2022-02-13",
      "departureDate": "2022-02-27",
      "latitude": 28.37584,
      "longitude": -81.68532,
      "miles": 42.3,
      "location": "2110 Thousand Trails Blvd, Clermont, FL 34714",
      "url": "https://thousandtrails.com/florida/orlando-rv-resort/?utm_source=campgrounds.rvlife.com&utm_medium=referral&utm_campaign=RVLife_Campgrounds",
      "address": "2110 Thousand Trails Blvd",
      "city": "Clermont",
      "state": "FL"
    },
    {
      "id": "place-120",
      "name": "Southern Palms RV Resort",
      "arrivalDate": "2022-01-30",
      "departureDate": "2022-02-13",
      "latitude": 28.87546,
      "longitude": -81.69599,
      "miles": 77.7,
      "location": "One Avocado Lane, Eustis, FL 32726",
      "url": "https://thousandtrails.com/florida/southern-palms-rv-resort/?utm_source=campgrounds.rvlife.com&utm_medium=referral&utm_campaign=RVLife_Campgrounds",
      "address": "One Avocado Lane",
      "city": "Eustis",
      "state": "FL"
    },
    {
      "id": "place-119",
      "name": "Cabana Club RV Resort",
      "arrivalDate": "2022-01-23",
      "departureDate": "2022-01-30",
      "latitude": 28.08451,
      "longitude": -81.82762,
      "miles": 47.3,
      "location": "361 Denton Ave, Auburndale, FL 33823",
      "url": "https://www.margaritavilleresorts.com/camp-margaritaville-rv-resort-auburndale?utm_source=campgrounds.rvlife.com&utm_campaign=RVLife_Campgrounds&utm_medium=referral",
      "address": "361 Denton Ave",
      "city": "Auburndale",
      "state": "FL"
    },
    {
      "id": "place-118",
      "name": "Peace River RV & Camping Resort",
      "arrivalDate": "2022-01-09",
      "departureDate": "2022-01-23",
      "latitude": 27.5082,
      "longitude": -81.80223,
      "miles": 67.8,
      "location": "2555 River Road, Wauchula, FL 33873",
      "url": "https://thousandtrails.com/florida/peace-river-rv-camping-resort/?utm_source=campgrounds.rvlife.com&utm_medium=referral&utm_campaign=RVLife_Campgrounds",
      "address": "2555 River Road",
      "city": "Wauchula",
      "state": "FL"
    },
    {
      "id": "place-117",
      "name": "Orlando RV Resort",
      "arrivalDate": "2021-12-26",
      "departureDate": "2022-01-09",
      "latitude": 28.37584,
      "longitude": -81.68532,
      "miles": 75.1,
      "location": "2110 Thousand Trails Blvd, Clermont, FL 34714",
      "url": "https://thousandtrails.com/florida/orlando-rv-resort/?utm_source=campgrounds.rvlife.com&utm_medium=referral&utm_campaign=RVLife_Campgrounds",
      "address": "2110 Thousand Trails Blvd",
      "city": "Clermont",
      "state": "FL"
    },
    {
      "id": "place-116",
      "name": "Peace River RV & Camping Resort",
      "arrivalDate": "2021-12-05",
      "departureDate": "2021-12-26",
      "latitude": 27.5082,
      "longitude": -81.80223,
      "miles": 67.8,
      "location": "2555 River Road, Wauchula, FL 33873",
      "url": "https://thousandtrails.com/florida/peace-river-rv-camping-resort/?utm_source=campgrounds.rvlife.com&utm_medium=referral&utm_campaign=RVLife_Campgrounds",
      "address": "2555 River Road",
      "city": "Wauchula",
      "state": "FL"
    },
    {
      "id": "place-115",
      "name": "Orlando RV Resort",
      "arrivalDate": "2021-11-14",
      "departureDate": "2021-12-05",
      "latitude": 28.37584,
      "longitude": -81.68532,
      "miles": 44.4,
      "location": "2110 Thousand Trails Blvd, Clermont, FL 34714",
      "url": "https://thousandtrails.com/florida/orlando-rv-resort/?utm_source=campgrounds.rvlife.com&utm_medium=referral&utm_campaign=RVLife_Campgrounds",
      "address": "2110 Thousand Trails Blvd",
      "city": "Clermont",
      "state": "FL"
    },
    {
      "id": "place-114",
      "name": "Three Flags RV Campground",
      "arrivalDate": "2021-10-31",
      "departureDate": "2021-11-14",
      "latitude": 28.86002,
      "longitude": -82.07418,
      "miles": 301.3,
      "location": "1755 East State Road 44, Wildwood, FL 34785",
      "url": "https://thousandtrails.com/florida/three-flags-rv-campground/?utm_source=campgrounds.rvlife.com&utm_medium=referral&utm_campaign=RVLife_Campgrounds",
      "address": "1755 East State Road 44",
      "city": "Wildwood",
      "state": "FL"
    },
    {
      "id": "place-113",
      "name": "The Oaks at Point South RV",
      "arrivalDate": "2021-10-17",
      "departureDate": "2021-10-31",
      "latitude": 32.62638,
      "longitude": -80.87311,
      "miles": 272.7,
      "location": "1292 Campground Road, Yemassee, SC 29945",
      "url": "https://thousandtrails.com/south-carolina/the-oaks-at-point-south-rv/?utm_source=campgrounds.rvlife.com&utm_medium=referral&utm_campaign=RVLife_Campgrounds",
      "address": "1292 Campground Road",
      "city": "Yemassee",
      "state": "SC"
    },
    {
      "id": "place-112",
      "name": "Forest Lake RV Park & Camping Resort",
      "arrivalDate": "2021-09-26",
      "departureDate": "2021-10-17",
      "latitude": 35.85755,
      "longitude": -80.39575,
      "miles": 84.5,
      "location": "192 Thousand Trails Dr, Advance, NC 27006",
      "url": "https://thousandtrails.com/north-carolina/forest-lake-rv-camping-resort/?utm_source=campgrounds.rvlife.com&utm_medium=referral&utm_campaign=RVLife_Campgrounds",
      "address": "192 Thousand Trails Dr",
      "city": "Advance",
      "state": "NC"
    },
    {
      "id": "place-111",
      "name": "Cavendish Brewing Company",
      "arrivalDate": "2021-09-25",
      "departureDate": "2021-09-26",
      "latitude": 35.26592,
      "longitude": -81.18774,
      "miles": 121.8,
      "location": "207 N Chester St, Gastonia, NC 28052, United States",
      "url": "",
      "address": "207 N Chester St",
      "city": "Gastonia",
      "state": "NC"
    },
    {
      "id": "place-110",
      "name": "Carolina Landing",
      "arrivalDate": "2021-09-06",
      "departureDate": "2021-09-25",
      "latitude": 34.49924,
      "longitude": -82.97764,
      "miles": 75.9,
      "location": "120 Carolina Landing Drive, Fair Play, SC 29643",
      "url": "https://thousandtrails.com/south-carolina/carolina-landing-rv-resort/?utm_source=campgrounds.rvlife.com&utm_medium=referral&utm_campaign=RVLife_Campgrounds",
      "address": "120 Carolina Landing Drive",
      "city": "Fair Play",
      "state": "SC"
    },
    {
      "id": "place-109",
      "name": "Ironshield Brewing",
      "arrivalDate": "2021-09-05",
      "departureDate": "2021-09-06",
      "latitude": 33.95992,
      "longitude": -83.98726,
      "miles": 204.7,
      "location": "457 N Chestnut St, Lawrenceville, GA 30046, United States",
      "url": "",
      "address": "457 N Chestnut St",
      "city": "Lawrenceville",
      "state": "GA"
    },
    {
      "id": "place-108",
      "name": "Beans Creek Winery",
      "arrivalDate": "2021-09-04",
      "departureDate": "2021-09-05",
      "latitude": 35.48729,
      "longitude": -86.06972,
      "miles": 149.7,
      "location": "426 Ragsdale Rd, Manchester, TN 37355, United States",
      "url": "",
      "address": "426 Ragsdale Rd",
      "city": "Manchester",
      "state": "TN"
    },
    {
      "id": "place-107",
      "name": "Diamond Caverns RV Resort & Golf",
      "arrivalDate": "2021-08-22",
      "departureDate": "2021-09-04",
      "latitude": 37.11531,
      "longitude": -86.06238,
      "miles": 103.2,
      "location": "1878 Mammoth Cave Pkwy., Park City, KY 42160",
      "url": "https://thousandtrails.com/kentucky/diamond-caverns-rv-golf-club/?utm_source=campgrounds.rvlife.com&utm_medium=referral&utm_campaign=RVLife_Campgrounds",
      "address": "1878 Mammoth Cave Pkwy.",
      "city": "Park City",
      "state": "KY"
    },
    {
      "id": "place-106",
      "name": "Our Lady of Perpetual Hops",
      "arrivalDate": "2021-08-21",
      "departureDate": "2021-08-22",
      "latitude": 38.36665,
      "longitude": -85.80722,
      "miles": 110.8,
      "location": "300 Foundation Ct, New Albany, IN 47150-9496, United States",
      "url": "",
      "address": "300 Foundation Ct",
      "city": "New Albany",
      "state": "IN"
    },
    {
      "id": "place-105",
      "name": "Indian Lakes RV Campground",
      "arrivalDate": "2021-08-01",
      "departureDate": "2021-08-21",
      "latitude": 39.27789,
      "longitude": -85.12807,
      "miles": 231.1,
      "location": "7234 E State Rd 46, Batesville, IN 47006",
      "url": "https://thousandtrails.com/indiana/indian-lakes-rv-campground/?utm_source=campgrounds.rvlife.com&utm_medium=referral&utm_campaign=RVLife_Campgrounds",
      "address": "7234 E State Rd 46",
      "city": "Batesville",
      "state": "IN"
    },
    {
      "id": "place-104",
      "name": "Timber View Alpaca Farm",
      "arrivalDate": "2021-07-31",
      "departureDate": "2021-08-01",
      "latitude": 40.17004,
      "longitude": -88.87587,
      "miles": 121.1,
      "url": ""
    },
    {
      "id": "place-103",
      "name": "O'Connell's Yogi Bear Park (Yogi Bear Jellystone Park, Amboy, Il)",
      "arrivalDate": "2021-07-18",
      "departureDate": "2021-07-31",
      "latitude": 41.72433,
      "longitude": -89.26598,
      "miles": 250.7,
      "location": "O'Connell's Yogi Bear Park, 970 Green Wing Rd, Amboy, IL 61310, United States",
      "url": "",
      "address": "O'Connell's Yogi Bear Park, 970 Green Wing Rd",
      "city": "Amboy",
      "state": "IL"
    },
    {
      "id": "place-102",
      "name": "Twisted Vine Brewery",
      "arrivalDate": "2021-07-17",
      "departureDate": "2021-07-18",
      "latitude": 41.59393,
      "longitude": -93.74942,
      "miles": 147.8,
      "location": "3320 Westown Pkwy, West Des Moines, IA 50266-1111, United States",
      "url": "",
      "address": "3320 Westown Pkwy",
      "city": "West Des Moines",
      "state": "IA"
    },
    {
      "id": "place-101",
      "name": "West Omaha / NE Lincoln KOA Holiday",
      "arrivalDate": "2021-07-11",
      "departureDate": "2021-07-17",
      "latitude": 41.09477,
      "longitude": -96.26604,
      "miles": 259.5,
      "location": "14601 Highway 6, Gretna, NE 68028",
      "url": "https://koa.com/campgrounds/west-omaha/?utm_source=campgrounds.rvlife.com&utm_campaign=RVLife_Campgrounds&utm_medium=referral",
      "address": "14601 Highway 6",
      "city": "Gretna",
      "state": "NE"
    },
    {
      "id": "place-100",
      "name": "Pals Brewing Company",
      "arrivalDate": "2021-07-10",
      "departureDate": "2021-07-11",
      "latitude": 41.09007,
      "longitude": -100.79225,
      "miles": 272.9,
      "location": "4520 S Buffalo Bill Ave, North Platte, NE 69101, United States",
      "url": "",
      "address": "4520 S Buffalo Bill Ave",
      "city": "North Platte",
      "state": "NE"
    },
    {
      "id": "place-99",
      "name": "Clear Creek  RV Park",
      "arrivalDate": "2021-07-05",
      "departureDate": "2021-07-10",
      "latitude": 39.75398,
      "longitude": -105.23042,
      "miles": 132.3,
      "location": "1400 10th St, Golden, CO 80401",
      "url": "https://rec.cityofgolden.net/wbwsc/webtrac.wsc/splash.html?interfaceparameter=3&utm_source=campgrounds.rvlife.com&utm_campaign=RVLife_Campgrounds&utm_medium=referral",
      "address": "1400 10th St",
      "city": "Golden",
      "state": "CO"
    },
    {
      "id": "place-98",
      "name": "Stoneyard Distillery",
      "arrivalDate": "2021-07-04",
      "departureDate": "2021-07-05",
      "latitude": 39.6445,
      "longitude": -107.04113,
      "miles": 219.3,
      "location": "4600 US-6, Gypsum, CO 81637-9632, United States",
      "url": "",
      "address": "4600 US-6",
      "city": "Gypsum",
      "state": "CO"
    },
    {
      "id": "place-83",
      "name": "ACT Campground & Environmental Learning Center",
      "arrivalDate": "2021-06-27",
      "departureDate": "2021-07-04",
      "latitude": 38.54878,
      "longitude": -109.52265,
      "miles": 181.4,
      "location": "1536 Millcreek Dr, Moab, UT 84532",
      "url": "http://actcampground.com/?utm_source=campgroundreviews.com&utm_campaign=RVLife_Campgrounds&utm_medium=referral",
      "address": "1536 Millcreek Dr",
      "city": "Moab",
      "state": "UT"
    },
    {
      "id": "place-82",
      "name": "Richfield KOA",
      "arrivalDate": "2021-06-20",
      "departureDate": "2021-06-27",
      "latitude": 38.75976,
      "longitude": -112.09396,
      "miles": 121.5,
      "location": "590 West 600 South, Richfield, UT 84701",
      "url": "https://koa.com/campgrounds/richfield/?utm_source=campgroundreviews.com&utm_campaign=RVLife_Campgrounds&utm_medium=referral",
      "address": "590 West 600 South",
      "city": "Richfield",
      "state": "UT"
    },
    {
      "id": "place-81",
      "name": "Red Canyon RV Park and Campground",
      "arrivalDate": "2021-06-13",
      "departureDate": "2021-06-20",
      "latitude": 37.74879,
      "longitude": -112.36192,
      "miles": 127.2,
      "location": "3279 UT-12, Panguitch, UT 84759",
      "url": "https://www.redcanyonvillage.com/red-canyon-village-services#anchor2?utm_source=campgroundreviews.com&utm_campaign=RVLife_Campgrounds&utm_medium=referral",
      "address": "3279 UT-12",
      "city": "Panguitch",
      "state": "UT"
    },
    {
      "id": "place-80",
      "name": "McArthur's Temple View RV Resort",
      "arrivalDate": "2021-06-06",
      "departureDate": "2021-06-13",
      "latitude": 37.09156,
      "longitude": -113.58307,
      "miles": 125,
      "location": "975 S Main St, St George, UT 84770",
      "url": "https://www.templeviewrv.com/?utm_source=campgroundreviews.com&utm_campaign=RVLife_Campgrounds&utm_medium=referral",
      "address": "975 S Main St",
      "city": "St George",
      "state": "UT"
    },
    {
      "id": "place-29",
      "name": "Las Vegas RV Resort",
      "arrivalDate": "2021-05-30",
      "departureDate": "2021-06-06",
      "latitude": 36.1188,
      "longitude": -115.06465,
      "miles": 215,
      "location": "3890 S Nellis Blvd, Las Vegas, NV 89121",
      "url": "https://www.lasvegasrvresort.com/?utm_source=campgroundreviews.com&utm_campaign=RVLife_Campgrounds&utm_medium=referral",
      "address": "3890 S Nellis Blvd",
      "city": "Las Vegas",
      "state": "NV"
    },
    {
      "id": "place-28",
      "name": "Grand Canyon Railway RV Park",
      "arrivalDate": "2021-05-23",
      "departureDate": "2021-05-30",
      "latitude": 35.25164,
      "longitude": -112.19424,
      "miles": 94.9,
      "location": "601 W Franklin Ave, Williams, AZ 86046",
      "url": "https://www.thetrain.com/lodging/rv-park/?utm_source=campgroundreviews.com&utm_campaign=RVLife_Campgrounds&utm_medium=referral",
      "address": "601 W Franklin Ave",
      "city": "Williams",
      "state": "AZ"
    },
    {
      "id": "place-27",
      "name": "Verde Valley RV & Camping Resort",
      "arrivalDate": "2021-05-09",
      "departureDate": "2021-05-23",
      "latitude": 34.67026,
      "longitude": -111.94951,
      "miles": 121.4,
      "location": "6400 E. Thousand Trails Rd, Cottonwood, AZ 86326",
      "url": "https://rvonthego.com/arizona/verde-valley-rv-camping-resort/?utm_source=campgroundreviews.com&utm_campaign=RVLife_Campgrounds&utm_medium=referral",
      "address": "6400 E. Thousand Trails Rd",
      "city": "Cottonwood",
      "state": "AZ"
    },
    {
      "id": "place-26",
      "name": "Mesa Spirit RV Resort",
      "arrivalDate": "2021-05-02",
      "departureDate": "2021-05-09",
      "latitude": 33.41647,
      "longitude": -111.76616,
      "miles": 195,
      "location": "3020 E Main St, Mesa, AZ 85213",
      "url": "https://rvonthego.com/arizona/mesa-spirit-rv-resort/?utm_source=campgroundreviews.com&utm_campaign=RVLife_Campgrounds&utm_medium=referral",
      "address": "3020 E Main St",
      "city": "Mesa",
      "state": "AZ"
    },
    {
      "id": "place-25",
      "name": "Foothill Village RV Resort",
      "arrivalDate": "2021-05-01",
      "departureDate": "2021-05-02",
      "latitude": 32.66956,
      "longitude": -114.41297,
      "miles": 163.6,
      "location": "12705 E South Frontage Rd, Yuma, AZ 85367",
      "url": "https://rvonthego.com/arizona/foothill-village-rv-resort/?utm_source=campgroundreviews.com&utm_campaign=RVLife_Campgrounds&utm_medium=referral",
      "address": "12705 E South Frontage Rd",
      "city": "Yuma",
      "state": "AZ"
    },
    {
      "id": "place-65",
      "name": "Palm Springs RV Resort",
      "arrivalDate": "2021-04-18",
      "departureDate": "2021-05-01",
      "latitude": 33.76302,
      "longitude": -116.31014,
      "miles": 72,
      "location": "77500 Varner Rd, Palm Desert, CA 92211",
      "url": "https://rvonthego.com/california/palm-springs-rv-resort/?utm_source=campgroundreviews.com&utm_campaign=RVLife_Campgrounds&utm_medium=referral",
      "address": "77500 Varner Rd",
      "city": "Palm Desert",
      "state": "CA"
    },
    {
      "id": "place-64",
      "name": "Wilderness Lakes Preserve - Thousand Trails",
      "arrivalDate": "2021-03-28",
      "departureDate": "2021-04-18",
      "latitude": 33.67436,
      "longitude": -117.13779,
      "miles": 137.6,
      "location": "30605 Briggs Rd, Menifee, CA 92584",
      "url": "https://rvonthego.com/california/wilderness-lakes-rv-resort/?utm_source=campgroundreviews.com&utm_campaign=RVLife_Campgrounds&utm_medium=referral",
      "address": "30605 Briggs Rd",
      "city": "Menifee",
      "state": "CA"
    },
    {
      "id": "place-63",
      "name": "Giessinger Winery",
      "arrivalDate": "2021-03-27",
      "departureDate": "2021-03-28",
      "latitude": 34.39875,
      "longitude": -118.91098,
      "miles": 145.8,
      "location": "365 Santa Clara St, Fillmore, CA 93015-2013, United States",
      "url": "",
      "address": "365 Santa Clara St",
      "city": "Fillmore",
      "state": "CA"
    },
    {
      "id": "place-62",
      "name": "Pacific Dunes Ranch RV Resort",
      "arrivalDate": "2021-03-14",
      "departureDate": "2021-03-27",
      "latitude": 35.09345,
      "longitude": -120.61567,
      "miles": 155.3,
      "location": "1205 Silver Spur Place, Oceano, CA 93445",
      "url": "https://rvonthego.com/california/pacific-dunes-ranch-rv-resort/?utm_source=campgroundreviews.com&utm_campaign=RVLife_Campgrounds&utm_medium=referral",
      "address": "1205 Silver Spur Place",
      "city": "Oceano",
      "state": "CA"
    },
    {
      "id": "place-61",
      "name": "Marina Dunes RV Park",
      "arrivalDate": "2021-02-28",
      "departureDate": "2021-03-14",
      "latitude": 36.70236,
      "longitude": -121.80311,
      "miles": 39.4,
      "location": "3330 Dunes Rd, Marina, CA 93933",
      "url": "https://rvonthego.com/california/marina-dunes-rv-park/?utm_source=campgroundreviews.com&utm_campaign=RVLife_Campgrounds&utm_medium=referral",
      "address": "3330 Dunes Rd",
      "city": "Marina",
      "state": "CA"
    },
    {
      "id": "place-60",
      "name": "Thousand Trails / Morgan Hill RV Resort",
      "arrivalDate": "2021-02-14",
      "departureDate": "2021-02-28",
      "latitude": 37.06093,
      "longitude": -121.66508,
      "miles": 73.8,
      "location": "12895 Uvas Rd, Morgan Hill, CA 95037",
      "url": "https://rvonthego.com/california/morgan-hill-rv-resort/?utm_source=campgroundreviews.com&utm_campaign=RVLife_Campgrounds&utm_medium=referral",
      "address": "12895 Uvas Rd",
      "city": "Morgan Hill",
      "state": "CA"
    },
    {
      "id": "place-59",
      "name": "San Francisco RV Resort",
      "arrivalDate": "2021-01-31",
      "departureDate": "2021-02-14",
      "latitude": 37.64639,
      "longitude": -122.49205,
      "miles": 87.8,
      "location": "700 Palmetto Ave., Pacifica, CA 94044",
      "url": "https://rvonthego.com/california/san-francisco-rv-resort/?utm_source=campgroundreviews.com&utm_campaign=RVLife_Campgrounds&utm_medium=referral",
      "address": "700 Palmetto Ave.",
      "city": "Pacifica",
      "state": "CA"
    },
    {
      "id": "place-58",
      "name": "Turtle Beach RV Resort (formerly Turtle Beach Fish Camp)",
      "arrivalDate": "2021-01-17",
      "departureDate": "2021-01-31",
      "latitude": 37.77274,
      "longitude": -121.29849,
      "miles": 88.1,
      "location": "703 E. Williamson Rd., Manteca, CA 95337",
      "url": "https://rvonthego.com/california/turtle-beach-rv-resort/?utm_source=campgroundreviews.com&utm_campaign=RVLife_Campgrounds&utm_medium=referral",
      "address": "703 E. Williamson Rd.",
      "city": "Manteca",
      "state": "CA"
    },
    {
      "id": "place-57",
      "name": "Lake Minden RV Resort - Thousand Trails",
      "arrivalDate": "2020-12-27",
      "departureDate": "2021-01-17",
      "latitude": 38.89662,
      "longitude": -121.56985,
      "miles": 144.9,
      "location": "1256 Marcum Rd, Nicolaus, CA 95659",
      "url": "https://rvonthego.com/california/lake-minden-rv-resort/?utm_source=campgroundreviews.com&utm_campaign=RVLife_Campgrounds&utm_medium=referral",
      "address": "1256 Marcum Rd",
      "city": "Nicolaus",
      "state": "CA"
    },
    {
      "id": "place-56",
      "name": "Russian River RV Campground",
      "arrivalDate": "2020-12-06",
      "departureDate": "2020-12-27",
      "latitude": 38.8455,
      "longitude": -123.01931,
      "miles": 151.9,
      "location": "33655 Geysers Rd, Cloverdale, CA 95425",
      "url": "https://rvonthego.com/california/russian-river-rv-campground/?utm_source=campgroundreviews.com&utm_campaign=RVLife_Campgrounds&utm_medium=referral",
      "address": "33655 Geysers Rd",
      "city": "Cloverdale",
      "state": "CA"
    },
    {
      "id": "place-55",
      "name": "Stafford RV Park and Campground",
      "arrivalDate": "2020-11-29",
      "departureDate": "2020-12-06",
      "latitude": 40.45447,
      "longitude": -124.05474,
      "miles": 95.5,
      "location": "385 North Rd, Scotia, CA 95565",
      "url": "https://staffordrvpark.com/?utm_source=campgroundreviews.com&utm_campaign=RVLife_Campgrounds&utm_medium=referral",
      "address": "385 North Rd",
      "city": "Scotia",
      "state": "CA"
    },
    {
      "id": "place-54",
      "name": "Chinook RV Resort",
      "arrivalDate": "2020-11-22",
      "departureDate": "2020-11-29",
      "latitude": 41.54279,
      "longitude": -124.05207,
      "miles": 45.7,
      "location": "17465 Us Hwy 101 N Klamath, CA 95548, Klamath, CA 95548",
      "url": "https://www.chinookrvresort.com/?utm_source=campgroundreviews.com&utm_campaign=RVLife_Campgrounds&utm_medium=referral",
      "address": "17465 Us Hwy 101 N Klamath, CA 95548",
      "city": "Klamath",
      "state": "CA"
    },
    {
      "id": "place-79",
      "name": "AtRivers Edge RV Resort",
      "arrivalDate": "2020-11-15",
      "departureDate": "2020-11-22",
      "latitude": 42.07026,
      "longitude": -124.25158,
      "miles": 34.7,
      "location": "98203 S Bank Chetco River Rd, Brookings, OR 97415",
      "url": "https://www.atriversedge.com?utm_source=campgroundreviews.com&utm_campaign=RVLife_Campgrounds&utm_medium=referral",
      "address": "98203 S Bank Chetco River Rd",
      "city": "Brookings",
      "state": "OR"
    },
    {
      "id": "place-78",
      "name": "Secret Camp RV Park",
      "arrivalDate": "2020-11-08",
      "departureDate": "2020-11-15",
      "latitude": 42.44481,
      "longitude": -124.37017,
      "miles": 54,
      "location": "95614 Jerrys Flat Rd, Gold Beach, OR 97444",
      "url": "https://www.secretcamprvpark.com/?utm_source=campgroundreviews.com&utm_campaign=RVLife_Campgrounds&utm_medium=referral",
      "address": "95614 Jerrys Flat Rd",
      "city": "Gold Beach",
      "state": "OR"
    },
    {
      "id": "place-77",
      "name": "Bandon By The Sea RV Park",
      "arrivalDate": "2020-11-01",
      "departureDate": "2020-11-08",
      "latitude": 43.08457,
      "longitude": -124.41534,
      "miles": 73.3,
      "location": "49612 Highway 101, Bandon, OR 97411",
      "url": "https://www.bandonbythesearvpark.com?utm_source=campgroundreviews.com&utm_campaign=RVLife_Campgrounds&utm_medium=referral",
      "address": "49612 Highway 101",
      "city": "Bandon",
      "state": "OR"
    },
    {
      "id": "place-76",
      "name": "South Jetty RV & Camping Resort (Thousand Trails)",
      "arrivalDate": "2020-10-11",
      "departureDate": "2020-11-01",
      "latitude": 43.95493,
      "longitude": -124.11105,
      "miles": 45.1,
      "location": "5010 S Jetty Rd, Florence, OR 97439",
      "url": "https://rvonthego.com/oregon/south-jetty-rv-camping-resort/?utm_source=campgroundreviews.com&utm_campaign=RVLife_Campgrounds&utm_medium=referral",
      "address": "5010 S Jetty Rd",
      "city": "Florence",
      "state": "OR"
    },
    {
      "id": "place-75",
      "name": "Whalers Rest RV & Camping Resort",
      "arrivalDate": "2020-09-20",
      "departureDate": "2020-10-11",
      "latitude": 44.54869,
      "longitude": -124.07148,
      "miles": 45.1,
      "location": "50 SE 123 Street, South Beach, OR 97366",
      "url": "https://rvonthego.com/oregon/whalers-rest-rv-camping-resort/?utm_source=campgroundreviews.com&utm_campaign=RVLife_Campgrounds&utm_medium=referral",
      "address": "50 SE 123 Street",
      "city": "South Beach",
      "state": "OR"
    },
    {
      "id": "place-74",
      "name": "South Jetty RV & Camping Resort (Thousand Trails)",
      "arrivalDate": "2020-08-30",
      "departureDate": "2020-09-20",
      "latitude": 43.95493,
      "longitude": -124.11105,
      "miles": 45.1,
      "location": "5010 S Jetty Rd, Florence, OR 97439",
      "url": "https://rvonthego.com/oregon/south-jetty-rv-camping-resort/?utm_source=campgroundreviews.com&utm_campaign=RVLife_Campgrounds&utm_medium=referral",
      "address": "5010 S Jetty Rd",
      "city": "Florence",
      "state": "OR"
    },
    {
      "id": "place-73",
      "name": "Whalers Rest RV & Camping Resort",
      "arrivalDate": "2020-08-16",
      "departureDate": "2020-08-30",
      "latitude": 44.54869,
      "longitude": -124.07148,
      "miles": 56.5,
      "location": "50 SE 123 Street, South Beach, OR 97366",
      "url": "https://rvonthego.com/oregon/whalers-rest-rv-camping-resort/?utm_source=campgroundreviews.com&utm_campaign=RVLife_Campgrounds&utm_medium=referral",
      "address": "50 SE 123 Street",
      "city": "South Beach",
      "state": "OR"
    },
    {
      "id": "place-72",
      "name": "Pacific City RV & Camping Resort - Thousand Trails",
      "arrivalDate": "2020-07-26",
      "departureDate": "2020-08-16",
      "latitude": 45.23431,
      "longitude": -123.96844,
      "miles": 71.9,
      "location": "30000 Sandlake Rd, Cloverdale, OR 97112",
      "url": "https://rvonthego.com/oregon/pacific-city-rv-camping-resort/?utm_source=campgroundreviews.com&utm_campaign=RVLife_Campgrounds&utm_medium=referral",
      "address": "30000 Sandlake Rd",
      "city": "Cloverdale",
      "state": "OR"
    },
    {
      "id": "place-71",
      "name": "Seaside RV Resort, Thousand Trails",
      "arrivalDate": "2020-07-12",
      "departureDate": "2020-07-26",
      "latitude": 46.00026,
      "longitude": -123.90688,
      "miles": 122.9,
      "location": "1703 12th Avenue, Seaside, OR 97138",
      "url": "https://rvonthego.com/oregon/seaside-rv-resort/?utm_source=campgroundreviews.com&utm_campaign=RVLife_Campgrounds&utm_medium=referral",
      "address": "1703 12th Avenue",
      "city": "Seaside",
      "state": "OR"
    },
    {
      "id": "place-70",
      "name": "Mt Hood Village RV Resort",
      "arrivalDate": "2020-06-28",
      "departureDate": "2020-07-12",
      "latitude": 45.3595,
      "longitude": -121.99693,
      "miles": 28.9,
      "location": "65000 E. Hwy 26, Welches, OR 97067",
      "url": "https://rvonthego.com/oregon/mt-hood-village-rv-resort/?utm_source=campgroundreviews.com&utm_campaign=RVLife_Campgrounds&utm_medium=referral",
      "address": "65000 E. Hwy 26",
      "city": "Welches",
      "state": "OR"
    },
    {
      "id": "place-69",
      "name": "Gresham, OR",
      "arrivalDate": "2020-06-21",
      "departureDate": "2020-06-28",
      "latitude": 45.48409,
      "longitude": -122.45432,
      "miles": 170,
      "url": ""
    },
    {
      "id": "place-68",
      "name": "Bend-Sunriver RV Campground - Thousand Trails",
      "arrivalDate": "2020-06-14",
      "departureDate": "2020-06-21",
      "latitude": 43.82055,
      "longitude": -121.45361,
      "miles": 151,
      "location": "17480 South Century Dr, Bend, OR 97707",
      "url": "https://rvonthego.com/oregon/bend-sunriver-rv-campground/?utm_source=campgroundreviews.com&utm_campaign=RVLife_Campgrounds&utm_medium=referral",
      "address": "17480 South Century Dr",
      "city": "Bend",
      "state": "OR"
    },
    {
      "id": "place-67",
      "name": "Burns RV Park",
      "arrivalDate": "2020-06-13",
      "departureDate": "2020-06-14",
      "latitude": 43.59718,
      "longitude": -119.04983,
      "miles": 159.5,
      "location": "1273 Seneca Dr, Burns, OR 97720",
      "url": "http://www.burnsrvpark.com/?utm_source=campgroundreviews.com&utm_campaign=RVLife_Campgrounds&utm_medium=referral",
      "address": "1273 Seneca Dr",
      "city": "Burns",
      "state": "OR"
    },
    {
      "id": "place-66",
      "name": "Canyon Springs RV Resort (Long Term Stays Only)",
      "arrivalDate": "2020-06-12",
      "departureDate": "2020-06-13",
      "latitude": 43.69121,
      "longitude": -116.69953,
      "miles": 0,
      "location": "21965 Chicago St, Caldwell, ID 83607",
      "url": "https://canyonspringsrvresort.com/?utm_source=campgroundreviews.com&utm_campaign=RVLife_Campgrounds&utm_medium=referral",
      "address": "21965 Chicago St",
      "city": "Caldwell",
      "state": "ID"
    }
  ]
}